<?xml version="1.0" encoding="utf-8"?>
<ArrayOfCall xmlns:xsi="http://www.w3.org/2001/XMLSchema-instance" xmlns:xsd="http://www.w3.org/2001/XMLSchema">
  <Call>
    <Id>0</Id>
    <Status>Open</Status>
    <Type>Technical</Type>
    <Description>Flat tire in parking lot needs assistance</Description>
    <CallerAddress>123 Main St, New York, NY 10001, USA</CallerAddress>
    <Latitude>26.104564532038932</Latitude>
    <Longitude>-90.09006893744646</Longitude>
    <StartTime>2025-07-13T23:20:20</StartTime>
    <MaxEndTime>2025-07-19T23:20:20</MaxEndTime>
  </Call>
  <Call>
    <Id>6</Id>
    <Status>Open</Status>
    <Type>Social</Type>
    <Description>Electric scooter battery died</Description>
    <CallerAddress>234 Birch Ave, San Antonio, TX 78201, USA</CallerAddress>
    <Latitude>43.41849899696903</Latitude>
    <Longitude>-101.63737555530848</Longitude>
    <StartTime>2025-07-14T23:20:20</StartTime>
    <MaxEndTime>2025-07-19T23:20:20</MaxEndTime>
  </Call>
  <Call>
    <Id>7</Id>
    <Status>Open</Status>
    <Type>Medical</Type>
    <Description>Person needs help carrying heavy items upstairs</Description>
    <CallerAddress>567 Willow St, San Diego, CA 92101, USA</CallerAddress>
    <Latitude>40.87807935980385</Latitude>
    <Longitude>-92.78432658209462</Longitude>
    <StartTime>2025-07-15T23:20:20</StartTime>
    <MaxEndTime>2025-07-19T23:20:20</MaxEndTime>
  </Call>
  <Call>
    <Id>8</Id>
    <Status>Open</Status>
    <Type>None</Type>
    <Description>Family stranded - car won't start</Description>
    <CallerAddress>890 Cherry Ave, Dallas, TX 75201, USA</CallerAddress>
    <Latitude>40.59915943527666</Latitude>
    <Longitude>-98.57383377271101</Longitude>
    <StartTime>2025-07-14T23:20:20</StartTime>
    <MaxEndTime>2025-07-19T23:20:20</MaxEndTime>
  </Call>
  <Call>
    <Id>9</Id>
    <Status>Open</Status>
    <Type>None</Type>
    <Description>Need help changing tire on busy street</Description>
    <CallerAddress>112 Ash St, San Jose, CA 95101, USA</CallerAddress>
    <Latitude>33.11306912495757</Latitude>
    <Longitude>-75.12616730229406</Longitude>
    <StartTime>2025-07-13T23:20:20</StartTime>
    <MaxEndTime>2025-07-18T23:20:20</MaxEndTime>
  </Call>
  <Call>
    <Id>10</Id>
    <Status>Open</Status>
    <Type>Social</Type>
    <Description>Medical emergency - person needs transport</Description>
    <CallerAddress>445 Spruce St, Austin, TX 78701, USA</CallerAddress>
    <Latitude>44.24545031839344</Latitude>
    <Longitude>-82.2024597478333</Longitude>
    <StartTime>2025-07-15T23:20:20</StartTime>
    <MaxEndTime>2025-07-19T23:20:20</MaxEndTime>
  </Call>
  <Call>
    <Id>11</Id>
    <Status>Open</Status>
    <Type>Social</Type>
    <Description>Lost wallet in public area - help searching</Description>
    <CallerAddress>778 Palm Ave, Jacksonville, FL 32099, USA</CallerAddress>
    <Latitude>34.36570317629612</Latitude>
    <Longitude>-95.48772030970679</Longitude>
    <StartTime>2025-07-16T23:20:20</StartTime>
    <MaxEndTime>2025-07-18T23:20:20</MaxEndTime>
  </Call>
  <Call>
    <Id>12</Id>
    <Status>Open</Status>
    <Type>Medical</Type>
    <Description>Food delivery for homeless shelter</Description>
    <CallerAddress>556 Redwood St, San Francisco, CA 94102, USA</CallerAddress>
    <Latitude>35.63563425663212</Latitude>
    <Longitude>-94.7349853007741</Longitude>
    <StartTime>2025-07-14T23:20:20</StartTime>
    <MaxEndTime>2025-07-19T23:20:20</MaxEndTime>
  </Call>
  <Call>
    <Id>13</Id>
    <Status>Open</Status>
    <Type>None</Type>
    <Description>Pet locked in car - urgent rescue needed</Description>
    <CallerAddress>223 Cypress Ave, Columbus, OH 43085, USA</CallerAddress>
    <Latitude>37.537696946498215</Latitude>
    <Longitude>-68.23183185328153</Longitude>
    <StartTime>2025-07-15T23:20:20</StartTime>
    <MaxEndTime>2025-07-18T23:20:20</MaxEndTime>
  </Call>
  <Call>
    <Id>14</Id>
    <Status>Open</Status>
    <Type>Technical</Type>
    <Description>Moving assistance for elderly neighbor</Description>
    <CallerAddress>101 Magnolia St, Charlotte, NC 28202, USA</CallerAddress>
    <Latitude>40.54811167263012</Latitude>
    <Longitude>-100.90222423498456</Longitude>
    <StartTime>2025-07-14T23:20:20</StartTime>
    <MaxEndTime>2025-07-19T23:20:20</MaxEndTime>
  </Call>
  <Call>
    <Id>15</Id>
    <Status>Open</Status>
    <Type>Medical</Type>
    <Description>Car overheated on highway</Description>
    <CallerAddress>667 Poplar Ave, Fort Worth, TX 76101, USA</CallerAddress>
    <Latitude>42.807478318023605</Latitude>
    <Longitude>-82.90464759483618</Longitude>
    <StartTime>2025-07-15T23:20:20</StartTime>
    <MaxEndTime>2025-07-19T23:20:20</MaxEndTime>
  </Call>
  <Call>
    <Id>16</Id>
    <Status>Open</Status>
    <Type>Medical</Type>
    <Description>Child separated from family at mall</Description>
    <CallerAddress>334 Chestnut St, Seattle, WA 98101, USA</CallerAddress>
    <Latitude>34.564944233328596</Latitude>
    <Longitude>-98.02238332196511</Longitude>
    <StartTime>2025-07-14T23:20:20</StartTime>
    <MaxEndTime>2025-07-18T23:20:20</MaxEndTime>
  </Call>
  <Call>
    <Id>17</Id>
    <Status>Open</Status>
    <Type>Social</Type>
    <Description>Bike chain broken - need repair help</Description>
    <CallerAddress>889 Alder Ave, Denver, CO 80202, USA</CallerAddress>
    <Latitude>45.42062619311285</Latitude>
    <Longitude>-114.03327495277938</Longitude>
    <StartTime>2025-07-13T23:20:20</StartTime>
    <MaxEndTime>2025-07-18T23:20:20</MaxEndTime>
  </Call>
  <Call>
    <Id>18</Id>
    <Status>Open</Status>
    <Type>Medical</Type>
    <Description>Delivery truck stuck in narrow alley</Description>
    <CallerAddress>111 Olive St, El Paso, TX 79901, USA</CallerAddress>
    <Latitude>36.065129312486135</Latitude>
    <Longitude>-89.19398343377186</Longitude>
    <StartTime>2025-07-15T23:20:20</StartTime>
    <MaxEndTime>2025-07-18T23:20:20</MaxEndTime>
  </Call>
  <Call>
    <Id>19</Id>
    <Status>Open</Status>
    <Type>Medical</Type>
    <Description>Person fell and needs first aid</Description>
    <CallerAddress>222 Plum Ave, Detroit, MI 48201, USA</CallerAddress>
    <Latitude>37.91445032826621</Latitude>
    <Longitude>-108.63355093739436</Longitude>
    <StartTime>2025-07-14T23:20:20</StartTime>
    <MaxEndTime>2025-07-19T23:20:20</MaxEndTime>
  </Call>
  <Call>
    <Id>20</Id>
    <Status>Open</Status>
    <Type>Medical</Type>
    <Description>Broken wheelchair needs temporary fix</Description>
    <CallerAddress>555 Sycamore St, Boston, MA 02101, USA</CallerAddress>
    <Latitude>36.87500920736918</Latitude>
    <Longitude>-78.74776192909808</Longitude>
    <StartTime>2025-07-14T23:20:20</StartTime>
    <MaxEndTime>2025-07-19T23:20:20</MaxEndTime>
  </Call>
  <Call>
    <Id>21</Id>
    <Status>Open</Status>
    <Type>None</Type>
    <Description>Lost tourist needs directions and help</Description>
    <CallerAddress>777 Bamboo Ave, Memphis, TN 38101, USA</CallerAddress>
    <Latitude>39.9355263162645</Latitude>
    <Longitude>-85.09741316370597</Longitude>
    <StartTime>2025-07-13T23:20:20</StartTime>
    <MaxEndTime>2025-07-19T23:20:20</MaxEndTime>
  </Call>
  <Call>
    <Id>22</Id>
    <Status>Open</Status>
    <Type>Medical</Type>
    <Description>Flooded basement needs water removal</Description>
    <CallerAddress>999 Hazel St, Nashville, TN 37201, USA</CallerAddress>
    <Latitude>37.88671344362408</Latitude>
    <Longitude>-71.72651505628443</Longitude>
    <StartTime>2025-07-15T23:20:20</StartTime>
    <MaxEndTime>2025-07-18T23:20:20</MaxEndTime>
  </Call>
  <Call>
    <Id>23</Id>
    <Status>Open</Status>
    <Type>Medical</Type>
    <Description>Power outage - elderly person needs assistance</Description>
    <CallerAddress>333 Coral Ave, Portland, OR 97201, USA</CallerAddress>
    <Latitude>28.21394230322359</Latitude>
    <Longitude>-104.14851162075063</Longitude>
    <StartTime>2025-07-15T23:20:20</StartTime>
    <MaxEndTime>2025-07-18T23:20:20</MaxEndTime>
  </Call>
  <Call>
    <Id>24</Id>
    <Status>Open</Status>
    <Type>None</Type>
    <Description>Stuck elevator with person inside</Description>
    <CallerAddress>666 Sage St, Oklahoma City, OK 73101, USA</CallerAddress>
    <Latitude>31.298719464017097</Latitude>
    <Longitude>-121.10710783258693</Longitude>
    <StartTime>2025-07-16T23:20:20</StartTime>
    <MaxEndTime>2025-07-19T23:20:20</MaxEndTime>
  </Call>
  <Call>
    <Id>25</Id>
    <Status>Open</Status>
    <Type>Medical</Type>
    <Description>Ice storm - person needs help getting home</Description>
    <CallerAddress>444 Lilac Ave, Las Vegas, NV 89101, USA</CallerAddress>
    <Latitude>47.53339354040875</Latitude>
    <Longitude>-113.92578468160988</Longitude>
    <StartTime>2025-07-14T23:20:20</StartTime>
    <MaxEndTime>2025-07-19T23:20:20</MaxEndTime>
  </Call>
  <Call>
    <Id>26</Id>
    <Status>Open</Status>
    <Type>None</Type>
    <Description>Flat tire on motorcycle</Description>
    <CallerAddress>888 Myrtle St, Louisville, KY 40202, USA</CallerAddress>
    <Latitude>35.310204570090406</Latitude>
    <Longitude>-87.04583283107513</Longitude>
    <StartTime>2025-07-16T23:20:20</StartTime>
    <MaxEndTime>2025-07-18T23:20:20</MaxEndTime>
  </Call>
  <Call>
    <Id>27</Id>
    <Status>Open</Status>
    <Type>Medical</Type>
    <Description>Person locked out of apartment</Description>
    <CallerAddress>147 Juniper Ave, Baltimore, MD 21201, USA</CallerAddress>
    <Latitude>34.336760405235154</Latitude>
    <Longitude>-112.79267638538447</Longitude>
    <StartTime>2025-07-13T23:20:20</StartTime>
    <MaxEndTime>2025-07-18T23:20:20</MaxEndTime>
  </Call>
  <Call>
    <Id>28</Id>
    <Status>Open</Status>
    <Type>Medical</Type>
    <Description>Heavy furniture delivery assistance needed</Description>
    <CallerAddress>258 Aspen St, Milwaukee, WI 53201, USA</CallerAddress>
    <Latitude>43.52201157538968</Latitude>
    <Longitude>-69.7002087353805</Longitude>
    <StartTime>2025-07-13T23:20:20</StartTime>
    <MaxEndTime>2025-07-18T23:20:20</MaxEndTime>
  </Call>
  <Call>
    <Id>29</Id>
    <Status>Open</Status>
    <Type>Medical</Type>
    <Description>Car accident - need traffic direction help</Description>
    <CallerAddress>369 Hawthorn Ave, Albuquerque, NM 87101, USA</CallerAddress>
    <Latitude>48.26403781283369</Latitude>
    <Longitude>-78.20323658213701</Longitude>
    <StartTime>2025-07-14T23:20:20</StartTime>
    <MaxEndTime>2025-07-18T23:20:20</MaxEndTime>
  </Call>
  <Call>
    <Id>30</Id>
    <Status>Open</Status>
    <Type>Medical</Type>
    <Description>Diabetic person needs emergency glucose</Description>
    <CallerAddress>741 Eucalyptus St, Tucson, AZ 85701, USA</CallerAddress>
    <Latitude>40.5322707530871</Latitude>
    <Longitude>-90.34960144004421</Longitude>
    <StartTime>2025-07-13T23:20:20</StartTime>
    <MaxEndTime>2025-07-18T23:20:20</MaxEndTime>
  </Call>
  <Call>
    <Id>31</Id>
    <Status>Open</Status>
    <Type>Medical</Type>
    <Description>Phone died - need to contact family urgently</Description>
    <CallerAddress>852 Pinecone Ave, Fresno, CA 93701, USA</CallerAddress>
    <Latitude>44.08453620104686</Latitude>
    <Longitude>-102.17613206525647</Longitude>
    <StartTime>2025-07-15T23:20:20</StartTime>
    <MaxEndTime>2025-07-19T23:20:20</MaxEndTime>
  </Call>
  <Call>
    <Id>32</Id>
    <Status>Open</Status>
    <Type>Medical</Type>
    <Description>Slippery sidewalk - person fell</Description>
    <CallerAddress>963 Ivy St, Sacramento, CA 95814, USA</CallerAddress>
    <Latitude>44.122961735211774</Latitude>
    <Longitude>-76.08584109889821</Longitude>
    <StartTime>2025-07-13T23:20:20</StartTime>
    <MaxEndTime>2025-07-18T23:20:20</MaxEndTime>
  </Call>
  <Call>
    <Id>33</Id>
    <Status>Open</Status>
    <Type>Social</Type>
    <Description>Car window broken - need temporary cover</Description>
    <CallerAddress>159 Fir Ave, Long Beach, CA 90801, USA</CallerAddress>
    <Latitude>35.655217331817674</Latitude>
    <Longitude>-66.68358250010078</Longitude>
    <StartTime>2025-07-16T23:20:20</StartTime>
    <MaxEndTime>2025-07-19T23:20:20</MaxEndTime>
  </Call>
  <Call>
    <Id>34</Id>
    <Status>Open</Status>
    <Type>Medical</Type>
    <Description>Lost prescription medication</Description>
    <CallerAddress>357 Lavender St, Kansas City, MO 64108, USA</CallerAddress>
    <Latitude>43.434198260356645</Latitude>
    <Longitude>-99.58982819583511</Longitude>
    <StartTime>2025-07-13T23:20:20</StartTime>
    <MaxEndTime>2025-07-18T23:20:20</MaxEndTime>
  </Call>
  <Call>
    <Id>35</Id>
    <Status>Open</Status>
    <Type>Medical</Type>
    <Description>Severe allergic reaction - need EpiPen</Description>
    <CallerAddress>468 Marigold Ave, Mesa, AZ 85201, USA</CallerAddress>
    <Latitude>42.56297341169897</Latitude>
    <Longitude>-112.10626483367784</Longitude>
    <StartTime>2025-07-13T23:20:20</StartTime>
    <MaxEndTime>2025-07-18T23:20:20</MaxEndTime>
  </Call>
  <Call>
    <Id>36</Id>
    <Status>Open</Status>
    <Type>None</Type>
    <Description>Confused elderly person needs help getting home</Description>
    <CallerAddress>579 Sagebrush St, Virginia Beach, VA 23451, USA</CallerAddress>
    <Latitude>43.816415749359145</Latitude>
    <Longitude>-123.09102432560992</Longitude>
    <StartTime>2025-07-13T23:20:20</StartTime>
    <MaxEndTime>2025-07-19T23:20:20</MaxEndTime>
  </Call>
  <Call>
    <Id>37</Id>
    <Status>Open</Status>
    <Type>Technical</Type>
    <Description>Broken crutch needs temporary replacement</Description>
    <CallerAddress>681 Daffodil Ave, Atlanta, GA 30309, USA</CallerAddress>
    <Latitude>25.431750383629115</Latitude>
    <Longitude>-113.08882929624768</Longitude>
    <StartTime>2025-07-15T23:20:20</StartTime>
    <MaxEndTime>2025-07-18T23:20:20</MaxEndTime>
  </Call>
  <Call>
    <Id>38</Id>
    <Status>Open</Status>
    <Type>Social</Type>
    <Description>Person having panic attack needs support</Description>
    <CallerAddress>792 Camellia St, Colorado Springs, CO 80903, USA</CallerAddress>
    <Latitude>48.52659275816045</Latitude>
    <Longitude>-70.42163181528124</Longitude>
    <StartTime>2025-07-15T23:20:20</StartTime>
    <MaxEndTime>2025-07-18T23:20:20</MaxEndTime>
  </Call>
  <Call>
    <Id>39</Id>
    <Status>Open</Status>
    <Type>Medical</Type>
    <Description>Car won't start in remote location</Description>
    <CallerAddress>135 Fern Ave, Omaha, NE 68102, USA</CallerAddress>
    <Latitude>41.89976549040312</Latitude>
    <Longitude>-100.03156450272503</Longitude>
    <StartTime>2025-07-15T23:20:20</StartTime>
    <MaxEndTime>2025-07-18T23:20:20</MaxEndTime>
  </Call>
  <Call>
    <Id>40</Id>
    <Status>Closed</Status>
    <Type>Technical</Type>
    <Description>Person needs help reading medication labels</Description>
    <CallerAddress>246 Amaranth St, Raleigh, NC 27601, USA</CallerAddress>
    <Latitude>36.077061609897584</Latitude>
    <Longitude>-83.4066808380498</Longitude>
    <StartTime>2025-06-19T23:20:20</StartTime>
    <MaxEndTime>2025-06-20T05:20:20</MaxEndTime>
  </Call>
  <Call>
    <Id>41</Id>
    <Status>Closed</Status>
    <Type>Medical</Type>
    <Description>Wheelchair tire flat - needs replacement</Description>
    <CallerAddress>357 Daisy Ave, Miami, FL 33101, USA</CallerAddress>
    <Latitude>48.65368108539347</Latitude>
    <Longitude>-118.01037324954213</Longitude>
    <StartTime>2025-07-08T23:20:20</StartTime>
    <MaxEndTime>2025-07-10T01:20:20</MaxEndTime>
  </Call>
  <Call>
    <Id>42</Id>
    <Status>Closed</Status>
    <Type>Medical</Type>
    <Description>Person with visual impairment needs navigation help</Description>
    <CallerAddress>468 Carnation St, Oakland, CA 94612, USA</CallerAddress>
    <Latitude>41.096238514297184</Latitude>
    <Longitude>-71.25630214625568</Longitude>
    <StartTime>2025-07-05T23:20:20</StartTime>
    <MaxEndTime>2025-07-06T13:20:20</MaxEndTime>
  </Call>
  <Call>
    <Id>43</Id>
    <Status>Closed</Status>
    <Type>None</Type>
    <Description>Insulin emergency - diabetic person needs help</Description>
    <CallerAddress>579 Bluebell Ave, Minneapolis, MN 55401, USA</CallerAddress>
    <Latitude>34.634261596022625</Latitude>
    <Longitude>-106.92866359954996</Longitude>
    <StartTime>2025-06-18T23:20:20</StartTime>
    <MaxEndTime>2025-06-21T01:20:20</MaxEndTime>
  </Call>
  <Call>
    <Id>44</Id>
    <Status>Closed</Status>
    <Type>Social</Type>
    <Description>Person with hearing aid malfunction needs assistance</Description>
    <CallerAddress>681 Gardenia St, Tulsa, OK 74103, USA</CallerAddress>
    <Latitude>28.423545600774496</Latitude>
    <Longitude>-76.2424485775444</Longitude>
    <StartTime>2025-06-24T23:20:20</StartTime>
    <MaxEndTime>2025-06-27T04:20:20</MaxEndTime>
  </Call>
  <Call>
    <Id>45</Id>
    <Status>Closed</Status>
    <Type>Social</Type>
    <Description>Emergency childcare needed - parent hospitalized</Description>
    <CallerAddress>792 Gladiolus Ave, Arlington, TX 76010, USA</CallerAddress>
    <Latitude>28.240416141876352</Latitude>
    <Longitude>-77.50420616858767</Longitude>
    <StartTime>2025-06-17T23:20:20</StartTime>
    <MaxEndTime>2025-06-18T10:20:20</MaxEndTime>
  </Call>
  <Call>
    <Id>46</Id>
    <Status>Closed</Status>
    <Type>Medical</Type>
    <Description>Person needs help with translation</Description>
    <CallerAddress>135 Oleander St, New Orleans, LA 70112, USA</CallerAddress>
    <Latitude>46.89723682257451</Latitude>
    <Longitude>-116.60624218548563</Longitude>
    <StartTime>2025-06-19T23:20:20</StartTime>
    <MaxEndTime>2025-06-21T21:20:20</MaxEndTime>
  </Call>
  <Call>
    <Id>47</Id>
    <Status>Closed</Status>
    <Type>Medical</Type>
    <Description>Oxygen tank running low - needs refill assistance</Description>
    <CallerAddress>246 Buttercup Ave, Wichita, KS 67202, USA</CallerAddress>
    <Latitude>35.77175131240061</Latitude>
    <Longitude>-69.29919267252706</Longitude>
    <StartTime>2025-06-17T23:20:20</StartTime>
    <MaxEndTime>2025-06-19T13:20:20</MaxEndTime>
  </Call>
  <Call>
    <Id>48</Id>
    <Status>Closed</Status>
    <Type>Medical</Type>
    <Description>Person with mobility issues stuck in snow</Description>
    <CallerAddress>357 Hibiscus St, Cleveland, OH 44113, USA</CallerAddress>
    <Latitude>30.206459291023606</Latitude>
    <Longitude>-69.31632193246568</Longitude>
    <StartTime>2025-06-19T23:20:20</StartTime>
    <MaxEndTime>2025-06-21T21:20:20</MaxEndTime>
  </Call>
  <Call>
    <Id>49</Id>
    <Status>Closed</Status>
    <Type>None</Type>
    <Description>Emergency medication delivery needed</Description>
    <CallerAddress>468 Jasmine Ave, Tampa, FL 33602, USA</CallerAddress>
    <Latitude>39.16424480110564</Latitude>
    <Longitude>-107.32112701948402</Longitude>
    <StartTime>2025-07-09T23:20:20</StartTime>
    <MaxEndTime>2025-07-11T19:20:20</MaxEndTime>
  </Call>
  <Call>
    <Id>1</Id>
    <Status>Closed</Status>
    <Type>Medical</Type>
    <Description>Car battery dead - requires jump start</Description>
    <CallerAddress>456 Oak Ave, Los Angeles, CA 90210, USA</CallerAddress>
    <Latitude>30.07505641283373</Latitude>
    <Longitude>-107.77550293140476</Longitude>
    <StartTime>2025-07-14T23:20:20</StartTime>
    <MaxEndTime>2025-07-19T23:20:20</MaxEndTime>
  </Call>
  <Call>
    <Id>2</Id>
    <Status>Closed</Status>
    <Type>Medical</Type>
    <Description>Locked keys inside vehicle</Description>
    <CallerAddress>789 Pine St, Chicago, IL 60601, USA</CallerAddress>
    <Latitude>41.8882756</Latitude>
    <Longitude>-88.1961933</Longitude>
    <StartTime>2025-07-15T23:20:20</StartTime>
    <MaxEndTime>2025-07-19T23:20:20</MaxEndTime>
  </Call>
  <Call>
    <Id>3</Id>
    <Status>Open</Status>
    <Type>Social</Type>
    <Description>Car stuck in parking garage</Description>
    <CallerAddress>321 Elm St, Houston, TX 77001, USA</CallerAddress>
    <Latitude>29.712923</Latitude>
    <Longitude>-95.4721699</Longitude>
    <StartTime>2025-07-14T23:20:20</StartTime>
    <MaxEndTime>2025-07-19T23:20:20</MaxEndTime>
  </Call>
  <Call>
    <Id>5</Id>
    <Status>Open</Status>
    <Type>Medical</Type>
    <Description>Wheelchair accessibility issue at building entrance1</Description>
    <CallerAddress>987 Cedar St, Philadelphia, PA 19101, USA</CallerAddress>
    <Latitude>39.976646</Latitude>
    <Longitude>-75.127947</Longitude>
    <StartTime>2025-07-14T23:20:20</StartTime>
    <MaxEndTime>2025-07-18T00:00:00</MaxEndTime>
  </Call>
  <Call>
    <Id>4</Id>
    <Status>Open</Status>
    <Type>Medical</Type>
    <Description>Elderly person needs help with groceries12</Description>
    <CallerAddress>654 Maple Ave, Phoenix, AZ 85001, USA</CallerAddress>
    <Latitude xsi:nil="true" />
    <Longitude xsi:nil="true" />
    <StartTime>2025-07-14T23:20:20</StartTime>
    <MaxEndTime>2025-07-19T00:00:00</MaxEndTime>
  </Call>
</ArrayOfCall>